[
  {
    "id": 707860,
    "name": "Hurzuf",
    "country": "UA",
    "coord": {
      "lon": 34.283333,
      "lat": 44.549999
    }
  },
  {
    "id": 519188,
    "name": "Novinki",
    "country": "RU",
    "coord": {
      "lon": 37.666668,
      "lat": 55.683334
    }
  },
  {
    "id": 1283378,
    "name": "GorkhƒÅ",
    "country": "NP",
    "coord": {
      "lon": 84.633331,
      "lat": 28
    }
 },
 {
 "id": 1174872,
 "name": "Karachi",
 "country": "PK",
 "coord": {
     "lon": 67.082199,
     "lat": 24.9056
     }
 },
 {
 "id": 4119617,
 "name": "London",
 "country": "US",
 "coord": {
     "lon": -93.25296,
     "lat": 35.328972
     }
 },
 {
 "id": 1275339,
 "name": "Mumbai",
 "country": "IN",
 "coord": {
     "lon": 72.847939,
     "lat": 19.01441
     }
 },
 {
 "id": 1275004,
 "name": "Kolkata",
 "country": "IN",
 "coord": {
     "lon": 88.36972,
     "lat": 22.569719
     }
 },
 {
 "id": 1176615,
 "name": "Islamabad",
 "country": "PK",
 "coord": {
     "lon": 73.043289,
     "lat": 33.721481
     }
 }
]
